image_id,tp,fp,fn,tn,precision,recall,accuracy,time,country_code,weather,road_type,road_condition,time_of_day,num_vehicles,longitude,latitude,solar_angle_elevation,focal_length_x,focal_length_y,principle_point_x,principle_point_y,camera_pose_x,camera_pose_y,camera_pose_z,camera_pose_yaw,camera_pose_pitch,camera_pose_roll,horizontal_fov,vertical_fov,ego_pose_x,ego_pose_y,ego_pose_z,ego_pose_yaw,ego_pose_pitch,ego_pose_roll,speed_var,mean_jerk,max_jerk,st_jerk,mean_angular_acc,max_angular_acc,st_angular_acc,mean_lateral_acc,max_lateral_acc,st_lateral_acc,luminance,contrast,saturation,sharpness,temperature,edge_density,entropy,image_path
7,3,0,3,11,1.0,0.5,0.824,1619693202.106043,0,4,0,0,0,16,20.988164355800656,52.21026525404571,52.451127266868866,1866.254649589019,1866.254649589019,1919.254029415608,1919.254029415608,2.023073685447837,-0.0017291202495095,1.129930671152837,-1.5676469090071028,0.0136731908611907,-1.5633595192911118,120.0310462140434,66.95362481129119,46.054621194388986,1.0480807041202589,-0.0257147553144838,0.0830524067372308,0.0044482974834597,-0.011986008446199,0.1520165606270211,0.2016277952179323,6.575864552544545,2.890169778531792,1.2035907892724005,17.60343079627408,8.379402912770924,-22.51392010252657,11.75245548407336,14.294751842304718,0.4101811647014599,37.973177229026234,25.60273367676504,22.73824759072739,40.6417972724181,1.9859672154413852,6.726662682841286,single_frames_img/000007/camera_front_blur/000007_india_2021-04-29T10:46:42.106043Z.jpg
13,4,0,5,9,1.0,0.444,0.722,1618486561.776342,0,6,0,1,0,10,20.992058528061428,52.24387136236378,46.1520429576821,1866.254649589019,1866.254649589019,1919.254029415608,1919.254029415608,2.023073685447837,-0.0017291202495095,1.129930671152837,-1.569392313614426,0.0136922417919822,-1.5651287137304093,120.0310462140434,66.95362481129119,59.81159344407166,-0.0645982890923085,-0.01995253183013,-0.0099345471107275,0.0017362056488455,0.0010581400637531,0.0108823104831023,-0.254690863592621,6.595793434927068,3.159753110038048,-0.3676488242127762,21.628316760133213,8.416756693010562,-1.1595903456488392,4.859019533494603,4.1872077762178215,0.3612835916178655,44.70654720339443,22.259183737562427,33.73376031349209,12.182974498516216,3.4943632960238125,6.810303810760104,single_frames_img/000013/camera_front_blur/000013_india_2021-04-15T11:36:01.776342Z.jpg
18,4,0,5,36,1.0,0.444,0.889,1618760862.108831,0,4,0,0,0,11,21.021194059953892,52.231419831423146,16.233728705245625,1866.254649589019,1866.254649589019,1919.254029415608,1919.254029415608,2.023073685447837,-0.0017291202495095,1.129930671152837,-1.5676469090071028,0.0136731908611907,-1.5633595192911118,120.0310462140434,66.95362481129119,0.0052458880607223,0.0048141536106184,-0.0021565266833859,0.0005119722419539,3.872825026844632e-05,5.3509451413275255e-05,2.033523567417597e-07,0.0092799335735212,0.4573437230880038,0.1186250579435174,0.0039132614134465,1.139373056698472,0.503028935762707,-8.216828027338255e-05,7.907173039465401e-05,0.0001025211294394,0.3802820506803576,47.968236995631976,22.09633892336844,19.04835632929278,13.200564672076464,1.298893228667214,6.8977310659872115,single_frames_img/000018/camera_front_blur/000018_india_2021-04-18T15:47:42.108831Z.jpg
23,3,1,5,22,0.75,0.375,0.806,1619632625.219581,0,1,0,0,1,18,21.007922951581268,52.23508070602112,-0.2196815017870506,1859.746969636308,1859.746969636308,1914.204755444865,1914.204755444865,2.009231466004983,-0.0029708236412786,1.136123277061316,-1.5629319833589457,0.0295297601818868,-1.5422887360998494,120.581700743319,67.21490441580156,11.27270089194664,0.0534915736577858,0.0497155438030271,0.0004332778598146,-0.0100680371947589,0.0033059012744713,0.520813980881051,0.0238480514137701,4.7063298384567736,1.36366925017056,-0.3892151503072347,12.597114428884378,3.591085726071322,-1.3303042524419448,0.7116843791523781,1.562576943422631,0.375498184972219,43.958620007019846,84.79232970019409,36.75206533704025,1.3117044042717965,2.175938068177459,6.819371901040555,single_frames_img/000023/camera_front_blur/000023_golf_2021-04-28T17:57:05.219581Z.jpg
50,2,0,2,4,1.0,0.5,0.75,1619702368.0006,0,4,0,0,0,24,21.015872892911265,52.21608968580066,40.25549216932168,1866.254649589019,1866.254649589019,1919.254029415608,1919.254029415608,2.023073685447837,-0.0017291202495095,1.129930671152837,-1.5676469090071028,0.0136731908611907,-1.5633595192911118,120.0310462140434,66.95362481129119,74.34408384412455,0.1608642046106204,0.1147403150634886,-0.0074297820211282,0.001374529038346,-0.0047754759925321,0.0090771500886187,-0.0319560742768445,6.681991836855203,2.213906632154338,0.5834809962328454,12.412403904423789,5.160445328529028,16.77607042008835,30.972525272614373,9.61339412193544,0.3786161489167783,41.48036857444571,28.16433969628158,82.3361728613451,12.382020307897898,7.558914248835835,6.989255271100455,single_frames_img/000050/camera_front_blur/000050_india_2021-04-29T13:19:28.000600Z.jpg
85,8,0,2,19,1.0,0.8,0.931,1618503212.335808,0,6,0,0,0,24,20.984694751688735,52.201534061861,11.583548586806645,1866.254649589019,1866.254649589019,1919.254029415608,1919.254029415608,2.023073685447837,-0.0017291202495095,1.129930671152837,-1.569392313614426,0.0136922417919822,-1.5651287137304093,120.0310462140434,66.95362481129119,76.98249335531915,-0.0405963693720962,-0.0385317518366377,-0.0059304023035476,0.000489225025416,0.0047320910270119,0.0059737674959809,-0.0577152698207854,5.345128449313469,2.0013428562111844,-0.4800730443497823,23.66363316248709,7.114853856477282,-1.3229021581378948,2.4908131889443137,2.806684022887457,0.3725131299902029,42.32241480261469,30.751245795007325,13.994473573758333,9.729447575520624,0.9523607174091492,6.536866245870805,single_frames_img/000085/camera_front_blur/000085_india_2021-04-15T16:13:32.335808Z.jpg
96,7,0,8,16,1.0,0.467,0.742,1618829323.670665,0,2,0,0,0,20,20.99392949173655,52.24178663283768,49.17363604080032,1866.254649589019,1866.254649589019,1919.254029415608,1919.254029415608,2.023073685447837,-0.0017291202495095,1.129930671152837,-1.5676469090071028,0.0136731908611907,-1.5633595192911118,120.0310462140434,66.95362481129119,45.839694953694774,0.2438021410517772,0.0200628603265038,0.0176291264785105,-0.0079401785513843,-0.0018476296880278,0.0049752309121916,0.042141326478634,16.972844251072072,5.002752451255695,-0.393681774767767,34.66662951064494,13.60768945811254,-0.3732008684079957,6.869024340402507,3.612744935475788,0.4569165985624635,40.80143334809021,37.91199470564092,44.96826223053946,27.677404018399063,6.16229989125515,7.188520208202254,single_frames_img/000096/camera_front_blur/000096_india_2021-04-19T10:48:43.670665Z.jpg
99,2,1,7,24,0.667,0.222,0.765,1619596438.336272,0,0,0,0,0,10,20.97790807825352,52.22916098592948,40.653071276893954,1866.254649589019,1866.254649589019,1919.254029415608,1919.254029415608,2.023073685447837,-0.0017291202495095,1.129930671152837,-1.5676469090071028,0.0136731908611907,-1.5633595192911118,120.0310462140434,66.95362481129119,31.28413585224929,0.1933606755859271,-0.0821344336573007,0.0093156687331722,0.0078662998464174,0.0053371380636197,0.0581107337665452,-0.1990358386324913,13.518109395055095,3.349680385848336,-0.6075194189062936,30.060748080174157,7.745632450773516,-1.583962809779763,2.7708339718029777,4.417642525625943,0.4501036769914293,32.85558331378978,28.39583832786093,25.09454292309732,19.64784617687001,2.405431416905125,6.978349046768693,single_frames_img/000099/camera_front_blur/000099_india_2021-04-28T07:53:58.336272Z.jpg
113,3,1,11,13,0.75,0.214,0.571,1619418695.217603,0,0,0,0,0,15,20.99071800045142,52.225440841114846,28.608226703589267,1859.746969636308,1859.746969636308,1914.204755444865,1914.204755444865,2.009231466004983,-0.0029708236412786,1.136123277061316,-1.5629319833589457,0.0295297601818868,-1.5422887360998494,120.581700743319,67.21490441580156,58.00535205018975,-0.5875757391689237,-0.0241771408752654,-0.0079434340911773,0.0013631983012923,0.0011714747030096,0.0458809322182142,-0.4441133910605658,6.784053652420844,2.8515540407478235,0.1677779414325854,25.64988540514891,8.008509616112695,0.7697001435158799,3.500038717800147,1.5448568093358366,0.4228413364985429,44.739185968814986,59.43619487000483,35.39499337241841,22.241568228390637,3.620205613113824,7.247129187367407,single_frames_img/000113/camera_front_blur/000113_golf_2021-04-26T06:31:35.217603Z.jpg
151,9,0,5,17,1.0,0.643,0.839,1619703653.223414,0,4,0,0,0,32,20.986046308023734,52.250828622099114,37.36952746879456,1866.254649589019,1866.254649589019,1919.254029415608,1919.254029415608,2.023073685447837,-0.0017291202495095,1.129930671152837,-1.5676469090071028,0.0136731908611907,-1.5633595192911118,120.0310462140434,66.95362481129119,22.837766866617145,-0.0724521467143282,-0.0677116426546866,-0.0089278858835349,0.0101094414228901,0.0026463472846175,0.2102616894761911,0.0445974804482597,9.079228446606782,3.3140747415038736,-0.2335587834324994,16.72372757597332,7.036229598845673,-1.0891675362853923,3.072997729499449,3.8494073202143166,0.4186203171497289,46.093762654170206,21.572270494664405,29.35493038885376,19.266904364631543,2.5589058580294743,7.009157155610879,single_frames_img/000151/camera_front_blur/000151_india_2021-04-29T13:40:53.223414Z.jpg
156,4,1,6,9,0.8,0.4,0.65,1619517455.888432,0,2,0,0,0,15,20.9870388491097,52.25613013046424,51.1616038821852,1859.746969636308,1859.746969636308,1914.204755444865,1914.204755444865,2.009231466004983,-0.0029708236412786,1.136123277061316,-1.5629319833589457,0.0295297601818868,-1.5422887360998494,120.581700743319,67.21490441580156,14.418224512818457,-0.171073002238705,-0.0130080392186433,-0.0208929764942584,0.0010995496129973,-0.0095496483485763,0.1361470689513749,0.1956491121791117,7.018065201871694,1.3493771187189736,0.0315130905085627,8.872140830161538,2.2357548256770596,0.0026128698344388,0.0506283272508366,0.0237477261898743,0.3504114465979562,47.80194460082587,26.063885202261584,22.351781919379423,5.348206499224388,1.8733907632085676,7.0097933879481085,single_frames_img/000156/camera_front_blur/000156_golf_2021-04-27T09:57:35.888432Z.jpg
166,6,0,6,4,1.0,0.5,0.625,1618762209.997482,0,4,0,0,0,27,21.02411832102067,52.23256823705229,12.784395967904146,1866.254649589019,1866.254649589019,1919.254029415608,1919.254029415608,2.023073685447837,-0.0017291202495095,1.129930671152837,-1.5676469090071028,0.0136731908611907,-1.5633595192911118,120.0310462140434,66.95362481129119,27.30977824210822,0.2844431628613942,-0.0106499382900386,0.0144979716840291,-0.0023133512997418,-0.0002472550020438,0.092025732995414,0.2851062340193324,5.445271633521792,1.4585467215551862,-0.0718757958507906,8.83284074660914,3.723264041674181,1.8280979316715027,3.665379461495296,1.4327584425647886,0.3105794092940012,46.70907439216973,19.632778397365573,16.822728032181352,24.664398877114746,0.8877431176208852,7.044997276264793,single_frames_img/000166/camera_front_blur/000166_india_2021-04-18T16:10:09.997482Z.jpg
167,10,5,35,30,0.667,0.222,0.5,1618937833.781743,0,2,0,0,0,57,20.9796397406758,52.23661627083083,6.24083473060098,1866.254649589019,1866.254649589019,1919.254029415608,1919.254029415608,2.023073685447837,-0.0017291202495095,1.129930671152837,-1.5676468490155226,0.0136823291439888,-1.5651048237980518,120.0310462140434,66.95362481129119,23.012313856996897,0.4792415408897232,-0.036596753701259,0.0248954752332803,0.0054843200489848,-0.0092890316164253,0.2441201972095796,0.1184836373478994,3.0263692894710057,1.145335288108669,-0.299903272056484,7.800996839367238,2.6816094821828673,-0.0475424010836156,0.3701902117384421,0.189226405594898,0.3949974694080131,47.082046915026346,64.327474352901,27.84828678904348,1.1773963856342815,1.8883683525634631,6.752542412645649,single_frames_img/000167/camera_front_blur/000167_india_2021-04-20T16:57:13.781743Z.jpg
169,6,0,5,15,1.0,0.545,0.808,1619704006.329473,0,4,0,0,0,16,20.986864411418235,52.25621306436592,36.640921076198914,1866.254649589019,1866.254649589019,1919.254029415608,1919.254029415608,2.023073685447837,-0.0017291202495095,1.129930671152837,-1.5676469090071028,0.0136731908611907,-1.5633595192911118,120.0310462140434,66.95362481129119,4.682030456038157,-0.0383678227825792,-0.0249039809008219,-0.0243144784945224,-0.0001791156927231,-0.0008475235950253,0.6844466963737083,-0.3191671089108442,2.3230375728699912,1.487137906746267,-0.1218195026373469,5.788249728576926,2.173323354365837,3.3989344502428462,5.837331495357728,1.304577299556151,0.3932213458240428,42.91087532834926,26.805920049520143,28.118997456856757,33.0267115725868,3.030944454779787,6.886459182339005,single_frames_img/000169/camera_front_blur/000169_india_2021-04-29T13:46:46.329473Z.jpg
171,4,0,16,17,1.0,0.2,0.568,1618938079.55256,0,4,0,0,0,35,21.000355423604812,52.24401691236534,5.644593840042916,1866.254649589019,1866.254649589019,1919.254029415608,1919.254029415608,2.023073685447837,-0.0017291202495095,1.129930671152837,-1.5676468490155226,0.0136823291439888,-1.5651048237980518,120.0310462140434,66.95362481129119,0.0066552274489497,0.0128917871603124,0.0124528491725239,-0.0002055085614213,0.0003586760107269,-5.1076203872577576e-05,0.0008307855235931,-0.0057344882995121,1.643156757324421,0.5226747952465085,-0.0360085806139431,3.0952649720057908,0.9625642055332518,-0.0005287707647547,0.0017885980922362,0.0015191391522888,0.379633777921031,41.24907063440791,64.84037150175295,33.35691601342699,0.6625943526782456,2.956728971200835,6.919482829736786,single_frames_img/000171/camera_front_blur/000171_india_2021-04-20T17:01:19.552560Z.jpg
181,9,2,18,25,0.818,0.333,0.63,1619252794.557142,0,2,0,0,0,27,20.96478734608792,52.2332813572285,43.22836477157412,1859.746969636308,1859.746969636308,1914.204755444865,1914.204755444865,2.009231466004983,-0.0029708236412786,1.136123277061316,-1.5646779031491849,0.0295611947478402,-1.5405950950370737,120.581700743319,67.21490441580156,2.942330648617937,0.0100927131599026,0.018205502045129,0.0050629528368786,0.0008495366515905,0.000612913413327,5.398149024710374e-07,-0.0105979804371411,0.8478193908475047,0.2104844013196849,0.0219055706730588,1.5255852903780476,0.4380814579386323,-0.0001957510038406,0.0002503720037283,0.0002313632435586,0.432964485707594,37.32713604492038,25.11372695165361,53.97258267208946,6.754790341974575,5.499220613957699,7.074450395922213,single_frames_img/000181/camera_front_blur/000181_golf_2021-04-24T08:26:34.557142Z.jpg
185,3,4,19,37,0.429,0.136,0.635,1619702517.336545,0,4,0,0,0,42,21.016241064570828,52.222881559062586,39.996022677458335,1866.254649589019,1866.254649589019,1919.254029415608,1919.254029415608,2.023073685447837,-0.0017291202495095,1.129930671152837,-1.5676469090071028,0.0136731908611907,-1.5633595192911118,120.0310462140434,66.95362481129119,-0.0044690357125306,0.0086253279979884,-0.0071381835610095,0.0004418045490739,7.15414561083872e-05,4.770559262042939e-05,2.4840603663112097e-07,0.0055029595232484,0.3163639870613324,0.1550633686271411,0.0157324462276186,3.4229574397695264,0.7104948777366445,-6.987338719006077e-05,0.0003116102800384,0.0002168962243826,0.4055791275321338,40.51131349819786,22.7393372030134,28.152827147399385,60.83013991642913,2.6927260339391337,7.026425810297809,single_frames_img/000185/camera_front_blur/000185_india_2021-04-29T13:21:57.336545Z.jpg
203,6,0,7,18,1.0,0.462,0.774,1618765264.115767,0,4,0,0,0,25,20.945601647757652,52.224867075043825,5.204263026586247,1866.254649589019,1866.254649589019,1919.254029415608,1919.254029415608,2.023073685447837,-0.0017291202495095,1.129930671152837,-1.5676469090071028,0.0136731908611907,-1.5633595192911118,120.0310462140434,66.95362481129119,22.37794864912998,0.0960089515714761,-0.1425071060415694,-0.0145318061954224,0.0041880322236291,-0.0464512893209562,0.0016346137347248,0.2221956768421412,26.17126243638318,8.054674314274353,0.3632463165963194,57.104327843242274,22.13602167398964,1.8213040304991912,13.227728750672782,7.823884249837551,0.3504440480536638,39.655711865286335,34.23411464526548,24.57684384366484,4.92685654696108,2.1460134559765556,6.7625858800724075,single_frames_img/000203/camera_front_blur/000203_india_2021-04-18T17:01:04.115767Z.jpg
208,5,2,13,25,0.714,0.278,0.667,1619265617.447059,0,2,0,0,0,17,20.95174835353982,52.227490629999046,47.35903538774122,1866.254649589019,1866.254649589019,1919.254029415608,1919.254029415608,2.023073685447837,-0.0017291202495095,1.129930671152837,-1.5676469090071028,0.0136731908611907,-1.5633595192911118,120.0310462140434,66.95362481129119,11.55386395704451,6.5086199621054535,-0.0450625689514394,1.1116302181124658,0.0088837252472702,0.0160506019855034,0.8147411977234683,0.1326746618755138,4.228174339890536,1.7242100896097448,2.738015726527369,12.19220332350822,5.470252224347252,-26.958651364797955,-1.8903794319497196,20.99752150903257,0.4809704770911901,40.87955182903646,35.276260586800255,40.61759439397073,15.488223964734082,3.9718732978649953,7.219269398592369,single_frames_img/000208/camera_front_blur/000208_india_2021-04-24T12:00:17.447059Z.jpg
210,9,1,14,20,0.9,0.391,0.659,1619521313.778687,0,2,0,0,0,46,21.060506996742443,52.26882203078942,51.47135513540061,1859.746969636308,1859.746969636308,1914.204755444865,1914.204755444865,2.009231466004983,-0.0029708236412786,1.136123277061316,-1.5629319833589457,0.0295297601818868,-1.5422887360998494,120.581700743319,67.21490441580156,1.626818910300314e-05,-0.0098379520422335,-0.0054073156329312,-0.0001480791881522,-8.560802307338285e-06,6.657863523966684e-05,1.6741882039914582e-08,-2.54867770560992e-05,0.1733904886665684,0.0545670340487417,-0.0305704366670057,0.6390509999218933,0.3460928287661477,1.150584675541796e-05,7.106675669893652e-05,3.4474005665522876e-05,0.4130594007228748,37.671545040813626,18.857605378938405,16.993806620361323,16.18029828870733,1.5541235778781903,6.943394243226317,single_frames_img/000210/camera_front_blur/000210_golf_2021-04-27T11:01:53.778687Z.jpg
213,4,0,4,8,1.0,0.5,0.75,1618762512.66918,0,4,0,0,0,18,21.014080930764464,52.23040829340592,12.038220854399242,1866.254649589019,1866.254649589019,1919.254029415608,1919.254029415608,2.023073685447837,-0.0017291202495095,1.129930671152837,-1.5676469090071028,0.0136731908611907,-1.5633595192911118,120.0310462140434,66.95362481129119,62.324249592523984,-0.3352840922700495,-0.1991050844558031,-0.0044480395404535,0.0022829197272731,0.0007957941489716,0.1313267866470007,0.2137227083078952,15.49663300524662,3.3266919477153385,0.2573173113401304,21.654420710267697,7.98708950189388,4.241209997124625,14.390670507404003,7.637268100851512,0.3132260035912087,44.511732977306906,25.89278035841689,23.121042174905163,5.057535366636474,1.854072729591641,7.006322293460085,single_frames_img/000213/camera_front_blur/000213_india_2021-04-18T16:15:12.669180Z.jpg
223,2,0,3,12,1.0,0.4,0.824,1619632346.11564,0,1,0,0,0,10,20.986224586522408,52.2305698933316,0.490028516164898,1859.746969636308,1859.746969636308,1914.204755444865,1914.204755444865,2.009231466004983,-0.0029708236412786,1.136123277061316,-1.5629319833589457,0.0295297601818868,-1.5422887360998494,120.581700743319,67.21490441580156,54.42278865398633,-5.629153056920402,0.132789452129701,-0.1761875653462123,-0.0156831787329602,0.0062567737006292,0.0361126934379399,0.0851525511387168,25.21378694215558,7.082021966088011,-0.6272259202555038,49.86911387027856,19.954561282103537,5.937488896854202,16.167950198832607,4.928385490398982,0.3492217205099775,43.11292415558725,73.52304403111599,28.362562272178344,0.2617496708746217,2.245843674003268,6.854676592094334,single_frames_img/000223/camera_front_blur/000223_golf_2021-04-28T17:52:26.115640Z.jpg
225,7,1,20,9,0.875,0.259,0.432,1619681537.773176,0,4,0,0,0,51,20.92998510199709,52.241212295392714,38.04938266000388,1866.254649589019,1866.254649589019,1919.254029415608,1919.254029415608,2.023073685447837,-0.0017291202495095,1.129930671152837,-1.5676469090071028,0.0136731908611907,-1.5633595192911118,120.0310462140434,66.95362481129119,32.81543902755114,-0.2903993844710815,-0.345390492676272,-0.0050350559217007,0.011947736648411,0.0010528529983755,0.1027221536514841,0.1740513046867232,8.241382144838635,2.4345561625630143,0.0228549564923288,18.516605551212223,6.560527506416864,0.6074338274228807,5.355446767421474,3.325854594737717,0.3565395086734896,41.7870618756399,17.784217228866677,13.653011747897818,28.40543899343992,1.014716395539735,7.057019659328522,single_frames_img/000225/camera_front_blur/000225_india_2021-04-29T07:32:17.773176Z.jpg
244,3,0,4,17,1.0,0.429,0.833,1619520210.893617,0,2,0,0,0,9,21.060868320462852,52.23225548858127,51.852263645985005,1859.746969636308,1859.746969636308,1914.204755444865,1914.204755444865,2.009231466004983,-0.0029708236412786,1.136123277061316,-1.5629319833589457,0.0295297601818868,-1.5422887360998494,120.581700743319,67.21490441580156,6.9669219543955325,-0.0417452040239327,-0.0195590061447851,-0.0167746204970875,-0.0029388075344876,-0.0027433105862589,0.0187929896047983,0.0754507712041434,1.523170818989182,0.3577168653800053,0.0026773167055057,1.5791515497811577,0.6775293226861424,0.0165333099026128,0.0885807361106585,0.0201044353070664,0.3737024955320484,44.80744621268666,19.927525129266364,41.94923634051931,10.849428614209309,4.602980006866077,6.884400297360367,single_frames_img/000244/camera_front_blur/000244_golf_2021-04-27T10:43:30.893617Z.jpg
246,3,0,8,14,1.0,0.273,0.68,1618485663.994148,0,6,0,1,0,14,21.02440921590025,52.238070253096375,46.89151816172976,1866.254649589019,1866.254649589019,1919.254029415608,1919.254029415608,2.023073685447837,-0.0017291202495095,1.129930671152837,-1.569392313614426,0.0136922417919822,-1.5651287137304093,120.0310462140434,66.95362481129119,30.693782215201775,0.4680611177135153,0.0334926475795307,0.0313368315678459,-0.0055905322467965,-0.0027784165825287,0.0256152242696629,0.1523639171291858,3.437117250677892,1.3039387499907595,1.1262938367551905,8.798345871800592,3.2728465031092067,7.7411118052891,26.464566663931183,9.62119139133175,0.3959962842030891,46.74506154684924,29.626244716189365,51.143109996451365,12.040156272942776,5.288617367722534,6.946401754604587,single_frames_img/000246/camera_front_blur/000246_india_2021-04-15T11:21:03.994148Z.jpg
247,1,0,1,33,1.0,0.5,0.971,1619521118.10881,0,2,0,0,0,16,21.04409602176768,52.26290527980349,51.5482684162424,1859.746969636308,1859.746969636308,1914.204755444865,1914.204755444865,2.009231466004983,-0.0029708236412786,1.136123277061316,-1.5629319833589457,0.0295297601818868,-1.5422887360998494,120.581700743319,67.21490441580156,9.325953258157888,0.8063877745331149,0.0335644592736838,0.1153856533223711,0.0190231275294764,-0.007037436918994,0.0196570550185503,0.130974639935867,2.400675094877459,0.555311194731954,-0.0127895048590838,1.9634682134451815,0.6883536883685335,0.0193188396848452,0.0706996166196445,0.0196723069716708,0.3634195839596588,40.35518255371866,26.665958642434656,48.15574846658103,22.4905123096972,4.9375610131491126,6.938149740995848,single_frames_img/000247/camera_front_blur/000247_golf_2021-04-27T10:58:38.108810Z.jpg
248,8,1,11,27,0.889,0.421,0.745,1618760054.662612,0,4,0,0,0,34,21.015449395189087,52.223428734838095,18.264269869632997,1866.254649589019,1866.254649589019,1919.254029415608,1919.254029415608,2.023073685447837,-0.0017291202495095,1.129930671152837,-1.5676469090071028,0.0136731908611907,-1.5633595192911118,120.0310462140434,66.95362481129119,-0.0011582262351649,-0.0024900849997211,-0.007019626527375,0.0001359966528412,-9.702936387710084e-06,3.4278726572696904e-05,8.966216521269688e-08,0.004050930642999,0.5103375754836005,0.1179472219407731,0.0394872308242583,2.7308994650948137,0.7214876804453733,-2.8041407670944912e-05,0.0003746446535351,0.0001783935029171,0.3336509006752657,45.742656961994264,20.006319595745335,19.517671272375253,17.205034156809138,1.13465937641445,6.884612664820585,single_frames_img/000248/camera_front_blur/000248_india_2021-04-18T15:34:14.662612Z.jpg
258,7,0,7,20,1.0,0.5,0.794,1618936091.886651,0,4,0,0,0,31,20.947907857637713,52.23865406790613,10.582274944205396,1866.254649589019,1866.254649589019,1919.254029415608,1919.254029415608,2.023073685447837,-0.0017291202495095,1.129930671152837,-1.5676468490155226,0.0136823291439888,-1.5651048237980518,120.0310462140434,66.95362481129119,0.0071178281036454,0.0060285544467794,0.004790775268076,-0.0009635083844153,0.0002494410722044,6.0736872396930984e-05,8.129108749087373e-08,-0.0005923817415631,0.1814465876987079,0.0802451066895291,0.0179052141696272,2.6128918786352573,0.6840995008507845,-2.12556867173515e-05,0.0001907994363106,0.0001124645683723,0.4179272243223839,50.50161704765598,27.351872540295048,22.9921303824858,3.3947893889310192,2.024664415693014,7.077822871213432,single_frames_img/000258/camera_front_blur/000258_india_2021-04-20T16:28:11.886651Z.jpg
263,1,0,4,13,1.0,0.2,0.778,1618821588.777137,0,2,0,0,0,12,20.99448836489529,52.2487742584617,43.00223922892673,1866.254649589019,1866.254649589019,1919.254029415608,1919.254029415608,2.023073685447837,-0.0017291202495095,1.129930671152837,-1.5676469090071028,0.0136731908611907,-1.5633595192911118,120.0310462140434,66.95362481129119,36.76017486893929,0.2339621572656894,0.0555360331352274,0.0120978215677609,-0.0052968767577004,0.0106770998315725,0.0026175350570431,-0.0331708403894028,6.049610435105535,1.769594164054184,0.4985700309082901,17.919483451055545,5.819441867340956,3.553533432445147,29.740411329178716,7.320657323104945,0.3901107013890549,34.66239056449466,30.345628701544292,39.903407312293254,20.032708508943227,3.605992186481117,6.973088970510393,single_frames_img/000263/camera_front_blur/000263_india_2021-04-19T08:39:48.777137Z.jpg
269,7,3,20,24,0.7,0.259,0.574,1619683572.105862,0,4,0,0,0,30,21.085759012431097,52.24480459453152,42.46781008284643,1866.254649589019,1866.254649589019,1919.254029415608,1919.254029415608,2.023073685447837,-0.0017291202495095,1.129930671152837,-1.5676469090071028,0.0136731908611907,-1.5633595192911118,120.0310462140434,66.95362481129119,34.06185678035141,8.677266197325087,-0.0614328665237923,0.4786208509570035,0.0031203121953599,-0.0110263843684299,0.0064515044727493,0.2766377879201175,9.211751399114416,2.8229677740010217,1.4279098854072163,26.415483361610814,9.01420318130989,-13.540966246714104,31.72350539652103,21.62665926226682,0.4199990229998912,39.99990801046848,25.829285328651103,27.014900591757016,19.90035798513701,3.1514681993233653,6.916002128735338,single_frames_img/000269/camera_front_blur/000269_india_2021-04-29T08:06:12.105862Z.jpg
279,7,0,6,11,1.0,0.538,0.75,1619703469.220056,0,4,0,0,0,18,20.99474196298448,52.24241335654776,37.88588010827224,1866.254649589019,1866.254649589019,1919.254029415608,1919.254029415608,2.023073685447837,-0.0017291202495095,1.129930671152837,-1.5676469090071028,0.0136731908611907,-1.5633595192911118,120.0310462140434,66.95362481129119,61.58155022973691,-3.794659905566516,-0.1494424951741745,-0.0497903245046269,0.007768561520055,-0.0032620318034171,0.1575233118118974,-0.117201052931865,4.322774033852044,1.6085760631389914,-0.4275918121946854,17.626762825515502,6.081043901123895,-26.947174037071907,-19.10019068881571,5.846446004615026,0.3363332257053767,42.549746302569794,17.846634040015037,14.83771089574094,63.122624127219666,0.8626174473153255,6.862002990951391,single_frames_img/000279/camera_front_blur/000279_india_2021-04-29T13:37:49.220056Z.jpg
287,3,0,3,3,1.0,0.5,0.667,1618503230.002764,0,6,0,1,0,27,20.983985546869047,52.199451962037635,11.583548586806645,1866.254649589019,1866.254649589019,1919.254029415608,1919.254029415608,2.023073685447837,-0.0017291202495095,1.129930671152837,-1.569392313614426,0.0136922417919822,-1.5651287137304093,120.0310462140434,66.95362481129119,59.9198107029159,-0.0966920881307866,-0.0064132463053663,-0.0013966008310182,7.737011617994537e-05,-0.0007535329025639,0.0011017796419531,0.039476786139833,4.062024103199948,1.4560035863693763,0.1223118008820278,12.741243004728624,4.112544703587969,-1.7389153179361168,3.974670277916037,3.4169938511284452,0.3568220254784179,42.74724660602283,29.565363782211108,22.29351508017882,10.805745204313308,2.313212259591411,6.589008026997562,single_frames_img/000287/camera_front_blur/000287_india_2021-04-15T16:13:50.002764Z.jpg
290,3,0,9,8,1.0,0.25,0.55,1619423448.003576,0,2,0,0,0,29,20.99476557727478,52.23229110784169,39.58935747382279,1866.254649589019,1866.254649589019,1919.254029415608,1919.254029415608,2.023073685447837,-0.0017291202495095,1.129930671152837,-1.5676469090071028,0.0136731908611907,-1.5633595192911118,120.0310462140434,66.95362481129119,60.95708071482516,-1.1942563328757714,-0.1512312353783041,-0.0324149625496985,0.005092010212917,0.000173375155065,0.018188215844698,-0.0191608773675084,6.488266254972755,1.8851833087958825,-0.0516332251614732,13.89038898669356,4.618927519987554,1.239017855199184,5.345078447440039,2.6856138143059343,0.4654286838056102,33.745366855127045,21.407458635722012,41.728392215459415,19.762969784813983,4.8022125117950765,7.049902968495662,single_frames_img/000290/camera_front_blur/000290_india_2021-04-26T07:50:48.003576Z.jpg
295,7,1,5,13,0.875,0.583,0.769,1620143057.000339,0,4,0,0,0,29,20.989397616606453,52.2405913787247,20.302376829867622,1866.254649589019,1866.254649589019,1919.254029415608,1919.254029415608,2.023073685447837,-0.0017291202495095,1.129930671152837,-1.5676469090071028,0.0136731908611907,-1.5633595192911118,120.0310462140434,66.95362481129119,78.43596106207882,-0.1426926272834088,-0.1290385102675054,0.011719065319233,0.006828699559119,-0.0017036956349325,0.0826296227552163,0.0119763147676408,4.356667847745893,1.3271815663433044,0.369431665000158,9.771187334724608,3.74356085139574,-0.8593191575094159,9.19444641817836,5.346345118873834,0.353239225433712,42.867578208057935,20.858427438224485,46.50897804200354,14.710334077116714,4.800347954752937,6.795219315726936,single_frames_img/000295/camera_front_blur/000295_india_2021-05-04T15:44:17.000339Z.jpg
296,3,0,2,15,1.0,0.6,0.9,1619428036.668239,0,2,0,0,0,7,21.01295770470027,52.22594831617726,47.825695362008034,1859.746969636308,1859.746969636308,1914.204755444865,1914.204755444865,2.009231466004983,-0.0029708236412786,1.136123277061316,-1.5629319833589457,0.0295297601818868,-1.5422887360998494,120.581700743319,67.21490441580156,34.09741138722012,1.1115381938868756,0.0318943516075303,0.0476960753523573,-0.0010783995397897,0.0035809415061296,0.0362511948993271,-0.1356447429811292,4.701409065076846,1.5472575748293789,-0.0171473258315488,8.49282696303981,4.014436478010531,1.124561726767009,2.9869104388083305,1.4843363818497215,0.3873302984092272,42.05264692007496,19.817944434641852,107.32662040854008,6.422431497279922,6.1911852421538764,7.141714990662415,single_frames_img/000296/camera_front_blur/000296_golf_2021-04-26T09:07:16.668239Z.jpg
308,4,0,1,11,1.0,0.8,0.938,1619263469.443229,0,2,0,0,0,5,20.985796045549368,52.26856084029842,49.65763774560259,1866.254649589019,1866.254649589019,1919.254029415608,1919.254029415608,2.023073685447837,-0.0017291202495095,1.129930671152837,-1.5676469090071028,0.0136731908611907,-1.5633595192911118,120.0310462140434,66.95362481129119,22.44929034093528,4.267117529500843,-0.0253340856207249,0.2949007405319538,-0.0058222092496372,0.0082112348839083,0.0139731923198613,-0.0276791719660553,6.756979117189062,2.0587092864630314,-0.0900987324121268,13.857372902759158,6.181810407810472,-15.085393493247846,-10.029061442804108,3.8136090167657186,0.3461709897229215,41.368343395482846,26.75079544844305,48.247521593973474,12.8279540515039,4.961433456590283,6.847779480260052,single_frames_img/000308/camera_front_blur/000308_india_2021-04-24T11:24:29.443229Z.jpg
313,3,0,7,11,1.0,0.3,0.667,1619423699.774017,0,2,0,0,0,14,21.00772548230994,52.235032499382434,40.09675351570357,1866.254649589019,1866.254649589019,1919.254029415608,1919.254029415608,2.023073685447837,-0.0017291202495095,1.129930671152837,-1.5676469090071028,0.0136731908611907,-1.5633595192911118,120.0310462140434,66.95362481129119,54.93609060019543,-0.126388914338738,-0.4502894296294966,-0.0082444087840806,0.0037805416832344,-0.0091139568856081,0.0006968006519603,-0.1107680140324946,5.030701434974021,2.2107592873135693,0.2817892521225372,16.836288083279598,5.522295186081271,1.0694017273267609,5.611824686320993,2.3852726494243286,0.4413893531018287,35.037498762037174,27.043263117467458,26.241861277336536,16.018730827842415,2.7363750086305436,7.044005869785217,single_frames_img/000313/camera_front_blur/000313_india_2021-04-26T07:54:59.774017Z.jpg
330,4,1,7,28,0.8,0.364,0.8,1618401087.77485,0,6,0,1,0,16,20.977950793149898,52.23965388318781,44.900602236402264,1866.254649589019,1866.254649589019,1919.254029415608,1919.254029415608,2.023073685447837,-0.0017291202495095,1.129930671152837,-1.569392313614426,0.0136922417919822,-1.5651287137304093,120.0310462140434,66.95362481129119,-0.0019837207674501,-0.0062196509736896,0.037809107450788,0.0001732575105192,3.345620454098054e-05,-6.102121575761918e-05,4.670624626210216e-07,0.0025553518877751,0.3758541758270499,0.1418297722563648,0.0066967881518782,1.401461293090946,0.5054388688972682,-2.1736072011992025e-05,0.0004112511200547,0.0002540096263769,0.3680361398093925,42.440469048422585,17.798158673504613,17.927670049368626,16.962769400954656,1.0098868871355031,6.633811395308051,single_frames_img/000330/camera_front_blur/000330_india_2021-04-14T11:51:27.774850Z.jpg
337,6,3,10,25,0.667,0.375,0.705,1619248172.114791,0,2,0,0,0,21,20.99773021920142,52.2333710350448,33.59262754276953,1859.746969636308,1859.746969636308,1914.204755444865,1914.204755444865,2.009231466004983,-0.0029708236412786,1.136123277061316,-1.5646779031491849,0.0295611947478402,-1.5405950950370737,120.581700743319,67.21490441580156,40.20213606092731,-0.2580195435983659,-0.1602612288218533,-0.0095235557244271,0.0022332058535441,-0.0055712121917202,0.0099655516142439,-0.0778750663432466,6.266525878090383,1.9844175045242545,0.1520251796053622,12.851192289477392,4.946941065941728,-2.0825276597320705,1.428548563919484,4.339693492611404,0.4232651869176451,54.150753175534746,81.60987209534258,59.714572215109186,3.937645067470665,4.588674880706708,7.26655415411477,single_frames_img/000337/camera_front_blur/000337_golf_2021-04-24T07:09:32.114791Z.jpg
348,6,2,19,18,0.75,0.24,0.533,1618936213.55518,0,4,0,0,0,41,20.95641383950653,52.23771134351812,10.276619178476125,1866.254649589019,1866.254649589019,1919.254029415608,1919.254029415608,2.023073685447837,-0.0017291202495095,1.129930671152837,-1.5676468490155226,0.0136823291439888,-1.5651048237980518,120.0310462140434,66.95362481129119,46.27030252003665,10.801243758819032,-0.5100984595750372,0.3937029101145466,0.0165790514960751,0.0033422859164601,0.1255158296452829,0.2015711498929879,10.131498300903738,2.7229154388810657,1.2954841397144403,20.448129099105103,7.879055047836744,3.590842311332084,25.746873180443444,18.626943857891256,0.4233064908382359,48.32114098921973,30.38604158195948,18.549339859288263,16.898371816934986,1.8013760682695183,7.217540955198482,single_frames_img/000348/camera_front_blur/000348_india_2021-04-20T16:30:13.555180Z.jpg
355,4,0,6,29,1.0,0.4,0.846,1619073344.665986,0,4,0,1,0,24,21.106097351743916,52.23683687391795,28.128351631059708,1859.746969636308,1859.746969636308,1914.204755444865,1914.204755444865,2.009231466004983,-0.0029708236412786,1.136123277061316,-1.5646779031491849,0.0295611947478402,-1.5405950950370737,120.581700743319,67.21490441580156,5.143506166477379,0.0176162861452776,0.0635224734829012,-0.0044465832178607,-0.0108947099687951,0.0059482184191269,6.583942950783503e-07,-0.0013670319836208,0.3933976787574068,0.1107923166212435,0.0107380950509414,0.8898710705627182,0.3389761069122561,-1.8829705684344156e-05,6.553101404102501e-05,5.9025753164237816e-05,0.3505508524419963,44.35829990944423,26.96324718931961,24.31817696031197,10.537212723415584,2.079500732637264,6.8468563690331115,single_frames_img/000355/camera_front_blur/000355_golf_2021-04-22T06:35:44.665986Z.jpg
358,4,0,10,8,1.0,0.286,0.545,1619703561.55497,0,4,0,0,0,19,20.98814947244023,52.24838342033169,37.6218289580436,1866.254649589019,1866.254649589019,1919.254029415608,1919.254029415608,2.023073685447837,-0.0017291202495095,1.129930671152837,-1.5676469090071028,0.0136731908611907,-1.5633595192911118,120.0310462140434,66.95362481129119,66.22029433471931,0.3153855702066632,0.0687340070208791,0.0021014789563306,0.0020555652989927,-0.0102597848654975,0.0016785684081843,0.2414570904479191,24.77562275987581,4.12791943630436,0.4109401412199798,25.521080421911364,5.419808100433054,2.046318428106648,7.923687730100869,2.383096902092144,0.4091680342975926,39.73931718311766,24.62706845363672,117.71159524157572,15.91755529811041,11.021121577509954,7.069860878115526,single_frames_img/000358/camera_front_blur/000358_india_2021-04-29T13:39:21.554970Z.jpg
365,4,0,5,18,1.0,0.444,0.815,1619177338.997925,0,2,0,1,0,11,20.95219670264829,52.23002439053749,49.184118020020016,1866.254649589019,1866.254649589019,1919.254029415608,1919.254029415608,2.023073685447837,-0.0017291202495095,1.129930671152837,-1.5676469090071028,0.0136731908611907,-1.5633595192911118,120.0310462140434,66.95362481129119,63.86409012776924,-1.7959892798798769,0.2309821357814143,-0.085785682602073,0.0014188535136218,0.0190782233667101,0.0477002410607726,-0.2138974231085026,23.212757806645595,6.49424506707337,-0.0848904052265047,57.28034258965186,19.91982962740628,-4.16567027669717,47.185731299027665,26.992806331938883,0.3518038198259872,48.03579952578119,19.274224977177006,22.209838483962756,12.580774433470625,1.8828663809637056,6.776112552749644,single_frames_img/000365/camera_front_blur/000365_india_2021-04-23T11:28:58.997925Z.jpg
372,6,2,4,14,0.75,0.6,0.769,1619176921.890823,0,2,0,1,0,19,20.98882338201103,52.24040087457369,49.46824684006376,1866.254649589019,1866.254649589019,1919.254029415608,1919.254029415608,2.023073685447837,-0.0017291202495095,1.129930671152837,-1.5676469090071028,0.0136731908611907,-1.5633595192911118,120.0310462140434,66.95362481129119,77.00035027804142,-0.3927113037398788,-0.1424713813787556,-0.0165053397401537,0.0059279793932539,0.0078910127821529,0.2744786124830541,-0.182507083323214,5.966871954700786,2.7907230359288007,0.243009520274628,13.819091498146118,6.140615515328684,13.82637987581708,27.86402833486819,7.863342530732262,0.3514221067672337,45.295258737499694,19.34988523774271,12.013279641649506,15.678624970418824,0.7038550001534319,6.613139061639962,single_frames_img/000372/camera_front_blur/000372_india_2021-04-23T11:22:01.890823Z.jpg
379,8,1,5,17,0.889,0.615,0.806,1618490651.779934,0,6,0,1,0,16,21.009450411921385,52.20315096660242,40.600156049235885,1866.254649589019,1866.254649589019,1919.254029415608,1919.254029415608,2.023073685447837,-0.0017291202495095,1.129930671152837,-1.569392313614426,0.0136922417919822,-1.5651287137304093,120.0310462140434,66.95362481129119,9.047693208277412,0.0427590939278099,0.0134341214294702,0.0092493666260535,-0.0033220494073031,-0.0022401368696065,0.0347627016035959,-0.0379971923332024,1.091700503301863,0.5411551872331549,-0.0773096798733078,3.8122942942947815,1.5550672610981295,-0.3066899349454023,0.1132742080814603,0.1751675666301217,0.3522811185064278,43.366681505657574,21.68512827864765,34.120764201078366,12.699004250800012,2.231966478968324,6.748760730470218,single_frames_img/000379/camera_front_blur/000379_india_2021-04-15T12:44:11.779934Z.jpg
395,6,2,17,10,0.75,0.261,0.457,1619265443.444042,0,2,0,0,0,37,20.962387562918124,52.23298509446637,47.56167081497165,1866.254649589019,1866.254649589019,1919.254029415608,1919.254029415608,2.023073685447837,-0.0017291202495095,1.129930671152837,-1.5676469090071028,0.0136731908611907,-1.5633595192911118,120.0310462140434,66.95362481129119,73.48917673389614,2.650688969088693,0.4078182692197016,0.0805178582316495,0.0056260729609485,0.0103328156437156,0.4638979434324108,-0.0452832948860436,7.331109014606809,1.9298297564126052,0.5251560146066837,18.49237158136716,5.527750806737862,-17.807793222033393,-12.819616701040877,2.958367839849898,0.4188976598591044,38.85243571761981,21.624746477779222,23.411249362255223,20.39408578315169,2.0829241816326687,7.14999565992928,single_frames_img/000395/camera_front_blur/000395_india_2021-04-24T11:57:23.444042Z.jpg
397,8,2,11,9,0.8,0.421,0.567,1619703504.887279,0,4,0,0,0,44,20.99294728755214,52.24294943418403,37.7296076640428,1866.254649589019,1866.254649589019,1919.254029415608,1919.254029415608,2.023073685447837,-0.0017291202495095,1.129930671152837,-1.5676469090071028,0.0136731908611907,-1.5633595192911118,120.0310462140434,66.95362481129119,48.28515667561918,0.099204530847078,-0.0345860584460155,0.0055362733136243,0.0025247666572389,-0.0035342021015609,0.0021319246110025,-0.2301030806484463,21.46760514274236,6.16703566262187,-0.3190531169839585,57.75387062974223,19.129064163767815,3.370004051651776,24.596942751691262,9.49749318293369,0.4156154984107014,42.730906940139526,19.969534180788795,21.153000237118487,23.56863958533689,2.1859333165836854,7.022454568046588,single_frames_img/000397/camera_front_blur/000397_india_2021-04-29T13:38:24.887279Z.jpg
402,1,0,1,18,1.0,0.5,0.95,1619681573.440444,0,4,0,0,0,3,20.93335950002392,52.24121564493192,38.04938266000388,1866.254649589019,1866.254649589019,1919.254029415608,1919.254029415608,2.023073685447837,-0.0017291202495095,1.129930671152837,-1.5676469090071028,0.0136731908611907,-1.5633595192911118,120.0310462140434,66.95362481129119,20.064487380988645,-0.1450083678641538,0.1080007176111563,-0.0092646640437304,0.0031037487987566,0.0054232728809108,0.0620573280096512,0.197074375483233,29.120457076004698,10.107589902984731,-0.1226065584937102,62.72899617827808,21.53255527311127,-0.1838877080627538,1.7095270271494971,0.887290041884943,0.3922233292132359,44.06261764692084,18.950070866353155,12.864425546123275,32.28362662654096,1.1911768513475156,7.146316721702993,single_frames_img/000402/camera_front_blur/000402_india_2021-04-29T07:32:53.440444Z.jpg
406,9,1,6,6,0.9,0.6,0.682,1618936062.219513,0,4,0,0,0,27,20.947071258572517,52.23873440569264,10.73367925298885,1866.254649589019,1866.254649589019,1919.254029415608,1919.254029415608,2.023073685447837,-0.0017291202495095,1.129930671152837,-1.5676468490155226,0.0136823291439888,-1.5651048237980518,120.0310462140434,66.95362481129119,48.59253052718419,0.0257831339334879,0.0534360470899996,0.0034907852308274,0.0021157438539316,-0.0068391872877747,0.2029569154409497,-0.0664571184685677,4.460524922211796,1.322429651459007,-0.0047022098026389,8.141421695022364,2.8280411054968195,-0.573510410278942,1.0460198399063674,0.8212460458391233,0.3969950472901146,41.59627198558633,24.4872582009344,25.981611186090163,14.694089186447206,2.4481633963299094,6.973343887810889,single_frames_img/000406/camera_front_blur/000406_india_2021-04-20T16:27:42.219513Z.jpg
409,3,1,5,33,0.75,0.375,0.857,1619632378.549489,0,1,0,0,0,17,20.989256311010475,52.23118765486929,0.3810156509034641,1859.746969636308,1859.746969636308,1914.204755444865,1914.204755444865,2.009231466004983,-0.0029708236412786,1.136123277061316,-1.5629319833589457,0.0295297601818868,-1.5422887360998494,120.581700743319,67.21490441580156,36.551030633625736,-0.2959333113165742,-0.0617367541187219,-0.019059930103413,-0.0057161937202209,-0.0011150494612582,0.8242242713593435,0.0485007202999629,7.08898844745751,2.0453465939370084,-0.0199382863235395,13.032845241335862,4.117359161314239,0.2152459309205904,4.496023297671879,3.3494598401746147,0.3741335874285733,43.2144754592098,75.22839211532708,41.892189765240175,13.213438918544066,3.615651203289579,6.845401297080577,single_frames_img/000409/camera_front_blur/000409_golf_2021-04-28T17:52:58.549489Z.jpg
413,7,1,10,10,0.875,0.412,0.607,1619702338.000045,0,4,0,0,0,42,21.01825224767171,52.21274505186876,40.357683976770446,1866.254649589019,1866.254649589019,1919.254029415608,1919.254029415608,2.023073685447837,-0.0017291202495095,1.129930671152837,-1.5676469090071028,0.0136731908611907,-1.5633595192911118,120.0310462140434,66.95362481129119,17.041561392969207,-0.4652383399438892,-0.0097482375229465,-0.0647437407953325,-0.0088076715318038,-0.0035342933712033,0.3525531971706846,0.0286681435094558,5.6171961617707815,1.6823384924674114,-0.302734274648569,8.915318987385241,3.726832440086283,11.53593056704555,13.684944102369617,1.5565069200097756,0.4030341057087041,42.804517516340006,17.957524419643885,25.89233861062511,55.577368606613426,2.625693679948754,7.075125513117343,single_frames_img/000413/camera_front_blur/000413_india_2021-04-29T13:18:58.000045Z.jpg
418,5,1,6,27,0.833,0.455,0.821,1619427859.665318,0,2,0,0,0,17,21.005367897411244,52.22842471373547,47.58777371471901,1859.746969636308,1859.746969636308,1914.204755444865,1914.204755444865,2.009231466004983,-0.0029708236412786,1.136123277061316,-1.5629319833589457,0.0295297601818868,-1.5422887360998494,120.581700743319,67.21490441580156,34.61596893165825,-0.7338842602947482,0.1577532989485952,-0.0589679422776756,0.0167960573645044,-0.0008805842960768,0.0054137350813447,-0.1254455942168232,19.0592580994671,6.016085040609294,0.4693232093004496,50.52271213220005,19.13823171467453,3.208581410033661,8.642495103575804,2.253448663923178,0.3181350817536242,39.08480482776158,24.169390122630436,22.957246319921484,7.444594782291011,1.8475009301808192,6.826763285561602,single_frames_img/000418/camera_front_blur/000418_golf_2021-04-26T09:04:19.665318Z.jpg
427,5,0,12,7,1.0,0.294,0.5,1619701640.887754,0,4,0,0,0,27,21.024877302786727,52.18668167272318,41.774903001374405,1866.254649589019,1866.254649589019,1919.254029415608,1919.254029415608,2.023073685447837,-0.0017291202495095,1.129930671152837,-1.5676469090071028,0.0136731908611907,-1.5633595192911118,120.0310462140434,66.95362481129119,53.37393315106497,4.321221734001131,-0.5626398414010398,0.1989442469355067,0.0161854371877542,0.010177967725049,0.1961566044766884,0.1276996363916469,6.121440060530744,2.1842600176116016,0.4151564104873681,22.89110605770685,7.436111186079549,-41.74260834608473,-7.531020009666627,15.083798570192927,0.3987354025353265,42.65340015607239,28.428219288689768,32.73787708283266,23.900052383271422,4.3094192555101225,7.0351981375713635,single_frames_img/000427/camera_front_blur/000427_india_2021-04-29T13:07:20.887754Z.jpg
447,6,3,20,25,0.667,0.231,0.574,1619683568.43907,0,4,0,0,0,33,21.08556253782498,52.24460615862614,42.46781008284643,1866.254649589019,1866.254649589019,1919.254029415608,1919.254029415608,2.023073685447837,-0.0017291202495095,1.129930671152837,-1.5676469090071028,0.0136731908611907,-1.5633595192911118,120.0310462140434,66.95362481129119,26.46059607435422,4.115007320613588,-0.2607158624057476,0.3380347750827118,0.0105933945110604,0.0110656026360476,0.0071459387187011,0.1046746080899344,24.95245357239824,6.024403990794908,-1.525482534688834,37.01696691858693,16.870994107123774,-41.20761681018222,-37.71096890960701,2.302897691155011,0.4077361072314404,39.430042696744685,22.205773138487626,28.947514064557925,23.88474636980723,3.4175802256983068,6.923559727543225,single_frames_img/000447/camera_front_blur/000447_india_2021-04-29T08:06:08.439070Z.jpg
449,3,0,1,14,1.0,0.75,0.944,1619704793.109932,0,4,0,0,0,13,20.960562311860812,52.23770442926127,34.80847883453628,1866.254649589019,1866.254649589019,1919.254029415608,1919.254029415608,2.023073685447837,-0.0017291202495095,1.129930671152837,-1.5676469090071028,0.0136731908611907,-1.5633595192911118,120.0310462140434,66.95362481129119,65.9025926695985,-0.0798702532768482,-0.2315945938785383,-0.000972923679286,0.0123525305909985,-0.0012882716167046,0.0272664235214534,-0.239577196643319,13.71062859514707,2.687741854571827,0.2806794336641762,21.48529171291871,6.030281561975474,-0.4585419914497276,6.317123264438849,4.8848376649964536,0.3283241977430169,41.7773804152443,18.8214189476874,13.717364557280128,81.31485396965662,0.7426744664406103,6.807671044484782,single_frames_img/000449/camera_front_blur/000449_india_2021-04-29T13:59:53.109932Z.jpg
450,3,0,8,22,1.0,0.273,0.758,1618760393.667928,0,4,0,0,0,19,21.020379972417004,52.22337825979363,17.45172306270868,1866.254649589019,1866.254649589019,1919.254029415608,1919.254029415608,2.023073685447837,-0.0017291202495095,1.129930671152837,-1.5676469090071028,0.0136731908611907,-1.5633595192911118,120.0310462140434,66.95362481129119,22.085130142129877,0.2376149707314666,-0.0047846598551743,0.0238418988534724,0.0026916185047739,-0.0078782836303997,0.0288108886554987,0.0793489407255982,6.418419349797617,1.9660076469350631,0.1005618961114364,9.755809281041104,4.141626148738587,-0.1822174309914732,0.82568717132887,0.4707531636847981,0.3461591744334039,43.79969962499708,27.870471601675476,47.389321063042814,6.654435708438321,4.661881669492371,6.924838344185489,single_frames_img/000450/camera_front_blur/000450_india_2021-04-18T15:39:53.667928Z.jpg
457,7,5,12,15,0.583,0.368,0.564,1618821151.337249,0,2,0,0,0,37,20.997180315606272,52.23621253391319,42.26857404905941,1866.254649589019,1866.254649589019,1919.254029415608,1919.254029415608,2.023073685447837,-0.0017291202495095,1.129930671152837,-1.5676469090071028,0.0136731908611907,-1.5633595192911118,120.0310462140434,66.95362481129119,56.30566233854473,-0.3045204586340739,0.1201836471957782,-0.0060953282749173,0.0017702069286601,0.0027851826706907,0.137190921785159,-0.1826590137401498,16.01253089540388,4.166161911046177,1.0629757104709303,31.40055735972317,10.344444479819623,2.463908919263764,7.069616817791736,2.9067027258370572,0.3475072385629689,42.57917181936763,65.52059223749723,40.58266442623628,7.892349524819233,4.0979601470261064,7.10270359520036,single_frames_img/000457/camera_front_blur/000457_india_2021-04-19T08:32:31.337249Z.jpg
460,3,2,11,10,0.6,0.214,0.5,1618903948.113021,0,2,0,0,0,37,21.0228526062126,52.20447515358602,35.46361709907653,1866.254649589019,1866.254649589019,1919.254029415608,1919.254029415608,2.023073685447837,-0.0017291202495095,1.129930671152837,-1.5676468490155226,0.0136823291439888,-1.5651048237980518,120.0310462140434,66.95362481129119,56.884397572847995,-0.8101984182846579,0.3358378786095585,-0.0125533577973839,-0.0066459871342597,-0.0010949613323734,0.0108016680010182,0.0343332055240491,5.76487436383507,1.969685664870851,0.0038207893559689,22.754309910186528,7.014414019046405,-2.4225684188278436,3.2882346501331345,4.513869455675414,0.4649369548185209,41.83340925747992,27.70203503425367,27.123493249387806,70.91160104353023,3.126464795053356,7.143090340383596,single_frames_img/000460/camera_front_blur/000460_india_2021-04-20T07:32:28.113021Z.jpg
481,3,1,2,30,0.75,0.6,0.917,1619632114.779223,0,1,0,0,0,22,20.957240197195095,52.227714333148676,0.9902658804339524,1859.746969636308,1859.746969636308,1914.204755444865,1914.204755444865,2.009231466004983,-0.0029708236412786,1.136123277061316,-1.5629319833589457,0.0295297601818868,-1.5422887360998494,120.581700743319,67.21490441580156,55.904478914665845,3.0802051481710766,0.4892570568485818,0.2065297388246466,-0.0070883436110049,-0.0147443213909861,0.0640948695663556,-0.2499776097353182,4.435774351403058,2.062128485983729,0.0080960015528145,12.456259171926716,5.939778109875953,-53.90871548506079,-43.9290537747291,5.506550297333248,0.3913480614031406,52.304518404524245,50.56535802851532,36.61196283397301,0.8051658021531278,2.2115174845225583,6.7741071110369795,single_frames_img/000481/camera_front_blur/000481_golf_2021-04-28T17:48:34.779223Z.jpg
491,5,1,6,10,0.833,0.455,0.682,1620143175.220699,0,4,0,0,0,14,20.970412191648418,52.2062765538676,20.0230292679491,1859.746969636308,1859.746969636308,1914.204755444865,1914.204755444865,2.009231466004983,-0.0029708236412786,1.136123277061316,-1.5699128441987793,0.0297554392607832,-1.5477314577859038,120.581700743319,67.21490441580156,37.62274704952803,-0.4903107212120144,-0.1031061616982614,-0.0178480646878167,-0.0006561070320171,-0.0139869971827715,0.0186585898907819,-0.5064878587514886,13.998219752660162,4.490725413493628,0.8635436535096838,48.10283189007567,12.05865358623619,-0.0863662312862114,5.463707245220957,2.5067908559982004,0.3420035930325978,45.80606611473963,24.104568146772944,30.868900593136495,9.965399508407376,2.953366655223205,6.592124962862571,single_frames_img/000491/camera_front_blur/000491_golf_2021-05-04T15:46:15.220699Z.jpg
495,4,2,8,9,0.667,0.333,0.565,1618821167.670802,0,2,0,0,0,14,20.996426921580653,52.238047040985464,42.334567357505115,1866.254649589019,1866.254649589019,1919.254029415608,1919.254029415608,2.023073685447837,-0.0017291202495095,1.129930671152837,-1.5676469090071028,0.0136731908611907,-1.5633595192911118,120.0310462140434,66.95362481129119,54.9678840789886,-1.5889727485339444,0.0022030929930832,-0.0806647424102569,0.0032133064330091,-0.0080947958373799,0.1241867974926821,-0.0473228177927641,6.827177984884678,2.4724653194511017,-0.0744121339902552,22.971757311109354,7.132102401717918,3.556406234542081,13.369672535581062,7.159925887302796,0.416723898077002,40.72023458577253,49.306503330430914,60.17014708004594,20.282586465945435,7.384532315632408,7.129067422376773,single_frames_img/000495/camera_front_blur/000495_india_2021-04-19T08:32:47.670802Z.jpg
505,6,1,5,12,0.857,0.545,0.75,1619248016.112202,0,2,0,0,0,33,20.992131435335185,52.24331317472141,33.21168899555449,1859.746969636308,1859.746969636308,1914.204755444865,1914.204755444865,2.009231466004983,-0.0029708236412786,1.136123277061316,-1.5646779031491849,0.0295611947478402,-1.5405950950370737,120.581700743319,67.21490441580156,66.22142178048584,-0.1517453758007085,-0.3385774786395452,9.814062978912443e-05,0.0025564292875458,-0.0005952794085139,0.0788670142365346,-0.0432174076449504,10.18752634357914,3.770820145103065,-0.4638237937554825,22.14719460840087,9.451947238315183,-1.9276069169342025,4.324520251201805,3.800289557055146,0.4438633106712931,38.35216358018052,36.69703075733979,22.89937864659416,7.203492654312938,2.0591128712092734,7.231848950472292,single_frames_img/000505/camera_front_blur/000505_golf_2021-04-24T07:06:56.112202Z.jpg
522,5,0,6,7,1.0,0.455,0.667,1618654526.778931,0,4,0,1,0,27,21.000995321622856,52.24424748209143,48.34006553496477,1866.254649589019,1866.254649589019,1919.254029415608,1919.254029415608,2.023073685447837,-0.0017291202495095,1.129930671152837,-1.569392313614426,0.0136922417919822,-1.5651287137304093,120.0310462140434,66.95362481129119,40.207880462729015,1.4534191977637785,-0.1735890639110843,0.0879219560521241,0.0356160679819338,-0.0316569730606314,0.278165492019145,-2.460393886502947,27.665956581633004,16.99090045901504,2.6093822919099243,112.93824332935806,26.35417934304229,-14.629457241893435,-4.241216505888607,5.0794293467337255,0.3667458580159361,40.11298023636735,22.437638568173625,25.19728056225119,15.48821995149568,2.426155509930879,6.861814284611631,single_frames_img/000522/camera_front_blur/000522_india_2021-04-17T10:15:26.778931Z.jpg
533,5,0,6,15,1.0,0.455,0.769,1619704088.330898,0,4,0,0,0,22,20.98485513587217,52.25543171589531,36.39430280655365,1866.254649589019,1866.254649589019,1919.254029415608,1919.254029415608,2.023073685447837,-0.0017291202495095,1.129930671152837,-1.5676469090071028,0.0136731908611907,-1.5633595192911118,120.0310462140434,66.95362481129119,-0.0109558161197936,0.0003882476008614,-0.0005906542291135,0.0008096170372467,0.0001236294441678,0.0001832241239546,2.761312956697675e-07,-0.0036769004865873,0.3110083455382115,0.1495944803084765,-0.0710383963965238,1.2479585814224632,0.7455493550710918,-4.636878761490989e-05,0.0003371369697471,0.0001808534465646,0.3235365596975647,45.21233850529739,17.97081485757685,24.864780237409065,37.13112025177945,1.8507715466317864,6.990984453830348,single_frames_img/000533/camera_front_blur/000533_india_2021-04-29T13:48:08.330898Z.jpg
534,8,3,11,14,0.727,0.421,0.611,1619696398.110652,0,4,0,0,0,48,21.00807938302898,52.23609818336452,50.31854461605926,1859.746969636308,1859.746969636308,1914.204755444865,1914.204755444865,2.009231466004983,-0.0029708236412786,1.136123277061316,-1.5646779031491849,0.0295611947478402,-1.5405950950370737,120.581700743319,67.21490441580156,54.60117566778722,-2.101208836813917,-0.0678194769346908,-0.0693333724040206,0.0029195941823851,0.0009000819361449,0.0102969485677751,-0.1445753411813379,3.4351276198144403,1.86663746293886,-0.0610476807472309,8.980504009802395,4.0835066931764015,3.794025689695556,9.44163383372599,3.3249859616499573,0.4052880013368129,44.302130685243135,25.776995141962853,30.414155322195377,23.205578086774256,4.046516712568373,6.800168720221521,single_frames_img/000534/camera_front_blur/000534_golf_2021-04-29T11:39:58.110652Z.jpg
536,6,1,16,14,0.857,0.273,0.541,1619702055.328401,0,4,0,0,0,19,21.02173725082033,52.20889757228597,40.86575800729496,1866.254649589019,1866.254649589019,1919.254029415608,1919.254029415608,2.023073685447837,-0.0017291202495095,1.129930671152837,-1.5676469090071028,0.0136731908611907,-1.5633595192911118,120.0310462140434,66.95362481129119,-0.0334340452695408,0.0374260115180099,-0.0213710592171568,0.0017625208911164,-8.416306087323794e-05,0.0001559139880687,1.726284260507079e-06,0.0048219072450432,0.8059711445519325,0.225874176212585,-0.0166582490635542,2.2197239801189306,0.777750543394341,4.0740454974079786e-05,0.0005432013754563,0.0002362157215257,0.3669752946268303,42.16351963309182,24.059763877914246,31.77239290219722,19.37657540213843,4.000575249710398,7.008517382655153,single_frames_img/000536/camera_front_blur/000536_india_2021-04-29T13:14:15.328401Z.jpg
538,3,0,1,12,1.0,0.75,0.938,1618491444.89365,0,6,0,1,0,10,21.02235109728627,52.229684105534645,39.13073391530328,1866.254649589019,1866.254649589019,1919.254029415608,1919.254029415608,2.023073685447837,-0.0017291202495095,1.129930671152837,-1.569392313614426,0.0136922417919822,-1.5651287137304093,120.0310462140434,66.95362481129119,35.54457521569015,-0.1455186746194221,0.0632416215482703,-0.0252718385475137,-0.0011960168708911,0.0056947765825167,0.0088001536411228,0.0091597289799656,14.210589465019911,4.120274789393496,0.1791331929037713,39.22539566179516,14.455939075745412,0.6461804949738379,7.788203823864427,3.869936218811915,0.3846299695761113,40.67930357062824,22.37476541702787,25.691429986040895,21.021550268995497,2.580638645848517,6.916681219540384,single_frames_img/000538/camera_front_blur/000538_india_2021-04-15T12:57:24.893650Z.jpg
543,5,0,11,10,1.0,0.312,0.577,1619632385.882909,0,1,0,0,0,28,20.990369417591477,52.23139560658824,0.3689656623039781,1859.746969636308,1859.746969636308,1914.204755444865,1914.204755444865,2.009231466004983,-0.0029708236412786,1.136123277061316,-1.5629319833589457,0.0295297601818868,-1.5422887360998494,120.581700743319,67.21490441580156,54.49078961954503,1.0034638903295017,0.27387473366392,0.0249174972586938,-0.0104518173757216,-0.0203542986268998,0.0449115354805111,1.9431422247134105,78.83703341067627,12.342641163840662,-2.3778770905884237,26.231023397866274,17.658940226493147,-1.7207012898567629,7.1885242131533165,3.3538473115694445,0.3421150671279551,46.53312022775031,82.07959039439666,28.306256878286973,1.207036669571511,1.8965601769453249,6.802069464694316,single_frames_img/000543/camera_front_blur/000543_golf_2021-04-28T17:53:05.882909Z.jpg
557,5,1,4,6,0.833,0.556,0.688,1619692341.557468,0,4,0,0,0,33,20.98385553115701,52.19902997077832,52.54619422090347,1866.254649589019,1866.254649589019,1919.254029415608,1919.254029415608,2.023073685447837,-0.0017291202495095,1.129930671152837,-1.5676469090071028,0.0136731908611907,-1.5633595192911118,120.0310462140434,66.95362481129119,63.294842321432085,0.0145127999730141,0.3098133392985059,0.0059130836431325,0.0004131715311323,0.0006738582635342,1.605488429672171,0.0537277111162346,8.63652936592082,2.646485286916934,0.2322621006187954,17.210561194608715,6.261152900944629,0.1051086154549496,2.0038871793304076,0.8954794722212464,0.3275779960471733,44.76609289402814,18.744923082676777,38.26311255124482,23.09500046706317,4.083104823706761,6.887512505733136,single_frames_img/000557/camera_front_blur/000557_india_2021-04-29T10:32:21.557468Z.jpg
